{"type": "FeatureCollection", "features": [{"type": "Feature", "geometry": {"type": "Point", "coordinates": [105.80123, 21.0059637]}, "properties": {"Address": "2A Nguy\u1ec5n Th\u1ecb Th\u1eadp, Trung Ho\u00e0", "name": "Nh\u00e0 h\u00e0ng V\u01b0\u1eddn Bia H\u00e0 N\u1ed9i - Nh\u00e0 h\u00e0ng Maison Nguy\u1ec5n Th\u1ecb Th\u1eadp"}}, {"type": "Feature", "geometry": {"type": "Point", "coordinates": [105.8002975, 21.0071779]}, "properties": {"Address": "169 Ph\u1ed1 Ho\u00e0ng Ng\u00e2n, Trung Ho\u00e0", "name": "Th\u1ebf Gi\u1edbi Bia L\u00e3 V\u1ecdng"}}, {"type": "Feature", "geometry": {"type": "Point", "coordinates": [105.8133818, 21.0271905]}, "properties": {"Address": "75 Nguy\u1ec5n C\u00f4ng Hoan, Ng\u1ecdc Kh\u00e1nh", "name": "Nh\u00e0 H\u00e0ng Bia T\u01b0\u01a1i - Zamba Beer & BBQ Nguy\u1ec5n C\u00f4ng Hoan"}}, {"type": "Feature", "geometry": {"type": "Point", "coordinates": [105.800846, 21.0160285]}, "properties": {"Address": "12b Trung Y\u00ean 3, Trung Ho\u00e0", "name": "Nh\u00e0 h\u00e0ng Bia S\u00e0nh \u0110i\u1ec7u"}}, {"type": "Feature", "geometry": {"type": "Point", "coordinates": [105.8054554, 21.0031261]}, "properties": {"Address": "T\u1ea7ng 1, To\u00e0 nh\u00e0 HEI TOWER- Ng\u00f5 9, Ho\u00e0ng \u0110\u1ea1o Th\u00fay, Nh\u00e2n Ch\u00ednh", "name": "Nh\u00e0 h\u00e0ng 3C Beer"}}, {"type": "Feature", "geometry": {"type": "Point", "coordinates": [105.7833755, 21.0309675]}, "properties": {"Address": "15 Ph\u1ed1 Duy T\u00e2n, D\u1ecbch V\u1ecdng H\u1eadu", "name": "Roxa Beer"}}, {"type": "Feature", "geometry": {"type": "Point", "coordinates": [105.801748, 21.008633]}, "properties": {"Address": "S\u00f4\u0301 169 Ph\u1ed1 Ho\u00e0ng Ng\u00e2n, Trung Ho\u00e0", "name": "Nh\u00e0 h\u00e0ng Th\u1ebf gi\u1edbi bia"}}, {"type": "Feature", "geometry": {"type": "Point", "coordinates": [105.8111083, 21.0186069]}, "properties": {"Address": "110 Hu\u1ef3nh Th\u00fac Kh\u00e1ng, L\u00e1ng H\u1ea1", "name": "Ng\u1ecdc H\u1eb1ng Beer Restaurant"}}, {"type": "Feature", "geometry": {"type": "Point", "coordinates": [105.7886985, 21.0326517]}, "properties": {"Address": "69 Tr\u1ea7n Th\u00e1i T\u00f4ng, D\u1ecbch V\u1ecdng H\u1eadu", "name": "Nh\u00e0 h\u00e0ng Beer Xanh"}}, {"type": "Feature", "geometry": {"type": "Point", "coordinates": [105.812229, 21.0289621]}, "properties": {"Address": "18 Nguy\u1ec5n Ch\u00ed Thanh, Ng\u1ecdc Kh\u00e1nh", "name": "T18 Beer Restaurant"}}, {"type": "Feature", "geometry": {"type": "Point", "coordinates": [105.8187622, 21.0226324]}, "properties": {"Address": "2 L\u00e1ng H\u1ea1, Th\u00e0nh C\u00f4ng", "name": "New Sphinx Beer Bar"}}, {"type": "Feature", "geometry": {"type": "Point", "coordinates": [105.7912259, 21.029943]}, "properties": {"Address": "109 Ph\u1ed1 Kh\u00fac Th\u1eeba D\u1ee5, D\u1ecbch V\u1ecdng", "name": "Park Beer Restaurant"}}, {"type": "Feature", "geometry": {"type": "Point", "coordinates": [105.8110869, 21.0262025]}, "properties": {"Address": "T\u1ea7ng 1, t\u00f2a nh\u00e0 Ng\u1ecdc Kh\u00e1nh Plaza, s\u1ed1, 1 Ph\u1ea1m Huy Th\u00f4ng, Ng\u1ecdc Kh\u00e1nh", "name": "C-Brewmaster Craft Beer"}}, {"type": "Feature", "geometry": {"type": "Point", "coordinates": [105.8042357, 21.0140927]}, "properties": {"Address": "5 Tr\u1ea7n Duy H\u01b0ng, Trung Ho\u00e0", "name": "9th Hour Beer Restaurant"}}, {"type": "Feature", "geometry": {"type": "Point", "coordinates": [105.7994701, 21.012817]}, "properties": {"Address": "H\u1ed3 Trung K\u00ednh, Ng\u00f5 110 Tr\u1ea7n Duy H\u01b0ng, Trung Ho\u00e0", "name": "Qu\u00e1n Bia Qu\u00fd Lu\u1eadn"}}, {"type": "Feature", "geometry": {"type": "Point", "coordinates": [105.8114523, 21.0139586]}, "properties": {"Address": "4 V\u0169 Ng\u1ecdc Phan, L\u00e1ng H\u1ea1", "name": "Legend Beer"}}, {"type": "Feature", "geometry": {"type": "Point", "coordinates": [105.8122236, 20.9979772]}, "properties": {"Address": "222 Nguy\u1ec5n Tr\u00e3i, Thanh Xu\u00e2n Trung", "name": "Roxa Beer Nguy\u1ec5n Tr\u00e3i"}}, {"type": "Feature", "geometry": {"type": "Point", "coordinates": [105.8008394, 21.0160845]}, "properties": {"Address": "L\u00f4 12B Trung Y\u00ean 3, Trung Ho\u00e0", "name": "Bia Th\u1ee7 C\u00f4ng - Bia S\u00e0nh \u0110i\u1ec7u"}}, {"type": "Feature", "geometry": {"type": "Point", "coordinates": [105.7988345, 21.0101531]}, "properties": {"Address": "Trung Ho\u00e0", "name": "Le Beer 3"}}, {"type": "Feature", "geometry": {"type": "Point", "coordinates": [105.8036045, 21.0055151]}, "properties": {"Address": "48 L\u00ea V\u0103n L\u01b0\u01a1ng, Nh\u00e2n Ch\u00ednh", "name": "iBiero Craft Beer Station - Diamond Flower Building 48 L\u00ea V\u0103n L\u01b0\u01a1ng"}}]}